{"ttl":60,"data":{"stations":[{"lon":-95.36949,"lat":29.75983,"address":"473 McKinney St.","name":"City Hall","station_id":"bcycle_houston_2061"},{"lon":-95.36189,"lat":29.76289,"address":"864 Congress St.","name":"Market Square","station_id":"bcycle_houston_2062"},{"lon":-95.36079,"lat":29.75248,"address":"1177 Crawford","name":"Lamar & Crawford","station_id":"bcycle_houston_2063"},{"lon":-95.37067,"lat":29.75256,"address":"808 Pease St","name":"Tellepsen YMCA","station_id":"bcycle_houston_2201"},{"lon":-95.37845,"lat":29.73966,"address":"3512 Main Street","name":"Ensemble/HCC Station","station_id":"bcycle_houston_2202"},{"lon":-95.38919,"lat":29.71732,"address":"6100 Herman Park Drive","name":"Hermann Park Lake Plaza","station_id":"bcycle_houston_2203"},{"lon":-95.36647,"lat":29.7617,"address":"612 Smith Street","name":"Smith & Capitol","station_id":"bcycle_houston_2270"},{"lon":-95.36762,"lat":29.75737,"address":"782 Lamar","name":"Lamar & Milam","station_id":"bcycle_houston_2271"},{"lon":-95.36626,"lat":29.75521,"address":"1250 Main","name":"Main & Dallas","station_id":"bcycle_houston_2272"},{"lon":-95.36118,"lat":29.75371,"address":"1075 La Branch","name":"La Branch & Lamar","station_id":"bcycle_houston_2273"},{"lon":-95.36242,"lat":29.75552,"address":"1248 McKinney","name":"McKinney & Caroline","station_id":"bcycle_houston_2274"},{"lon":-95.35996,"lat":29.76318,"address":"100 Main Street","name":"UHD/Main & Franklin","station_id":"bcycle_houston_2277"},{"lon":-95.35408,"lat":29.75296,"address":"736 St. Emanuel","name":"Rusk & St. Emanuel ","station_id":"bcycle_houston_2279"},{"lon":-95.37737,"lat":29.75233,"address":"2089 Baldwin Streeet ","name":"West Gray & Baldwin","station_id":"bcycle_houston_2280"},{"lon":-95.38025,"lat":29.74366,"address":"614 Elgin","name":"Elgin & Smith","station_id":"bcycle_houston_2282"},{"lon":-95.39273,"lat":29.74483,"address":"1111 Westheimer ","name":"Westheimer & Waugh","station_id":"bcycle_houston_2283"},{"lon":-95.39124,"lat":29.73564,"address":"4100 Montrose ","name":"Freed Library ","station_id":"bcycle_houston_2284"},{"lon":-95.38913,"lat":29.72497,"address":"5623 Fannin St. ","name":"MFAH/ Fannin & Binz","station_id":"bcycle_houston_2285"},{"lon":-95.37068,"lat":29.75013,"address":"1900 Main Street","name":"METRO Transit Center ","station_id":"bcycle_houston_2288"},{"lon":-95.37542,"lat":29.76144,"address":"190 Sabine Street","name":"Sabine Bridge ","station_id":"bcycle_houston_2291"},{"lon":-95.37112,"lat":29.75616,"address":"554 Clay","name":"Clay & Smith","station_id":"bcycle_houston_2369"},{"lon":-95.39688,"lat":29.76645,"address":"3683 Willia St.","name":"Spotts Park","station_id":"bcycle_houston_2433"},{"lon":-95.38563,"lat":29.74837,"address":"2401 Taft St.","name":"Taft & Fairview","station_id":"bcycle_houston_2434"},{"lon":-95.37412,"lat":29.74876,"address":"2215 Milam St.","name":"Milam & Webster","station_id":"bcycle_houston_2435"},{"lon":-95.39859,"lat":29.73864,"address":"1529 W. Alabama St.","name":"Menil Collection / Alabama & Mandell","station_id":"bcycle_houston_2436"},{"lon":-95.36685,"lat":29.77794,"address":"2109 South St.","name":"Leonel Castillo Comm Ctr / South St. & Henry","station_id":"bcycle_houston_2438"},{"lon":-95.3649,"lat":29.73169,"address":"2521 Holman St.","name":"Project Row House / Holman & Live Oak","station_id":"bcycle_houston_2439"},{"lon":-95.38571,"lat":29.77911,"address":"2300 Forester","name":"Stude Park","station_id":"bcycle_houston_2441"},{"lon":-95.34814,"lat":29.76076,"address":"1919 Runnels","name":"1919 Runnels","station_id":"bcycle_houston_2529"},{"lon":-95.37826,"lat":29.74801,"address":"2600 Brazos St.","name":"Brazos & McGowen","station_id":"bcycle_houston_3365"},{"lon":-95.40166,"lat":29.76328,"address":"300 Jackson St.","name":"Jackson Hill & Memorial Dr.","station_id":"bcycle_houston_3374"},{"lon":-95.36436,"lat":29.75764,"address":"914 Main St.","name":"Main & Walker","station_id":"bcycle_houston_3393"},{"lon":-95.55413,"lat":29.78184,"address":"10401 Town and Country Way","name":"Pearl City Centre","station_id":"bcycle_houston_3478"}]},"last_updated":1477020580}